학교명,체험처,주소,위도,경도
감문중학교,국립종자원,경북 김천시 혁신8로 119,36.12628545,128.19291404888932
감문중학교,김천요리제과 직업전문학교,경북 김천시 김천로 51,36.1181018,128.1238108
감문중학교,김천은호승마 클럽,경북 김천시 개령면 김선로 23-13,36.1676257,128.2010368
감문중학교,꽃누리,경북 포항시 북구 법원로 152,36.0817098,129.3855184
감문중학교,나다음에듀,대구 수성구 동대구로80길 14,35.8662683,128.6305281
감문중학교,라라의 공방,경북 경주시 금성로 382,35.8487459,129.2069856
감포중학교,경상북도발명교육체험관,경북 안동시 풍천면 도청대로 511,36.5561924,128.5065299
감포중학교,경상북도발명교육체험관,경북 안동시 풍천면 도청대로 511,36.5561924,128.5065299
감포중학교,위덕대학교,경상북도 경주시 강동면 동해대로 261,36.01221125,129.28441145446098
감포중학교,위덕대학교,경상북도 경주시 강동면 동해대로 261,36.01221125,129.28441145446098
감포중학교,화랑마을,경북 경주시 석현로 123,35.8601721,129.1895572
감포중학교,화랑마을,경북 경주시 석현로 123,35.8601721,129.1895572
강구중학교,청하기청산식물원,경북 포항시 북구 청하면 청하로175번길 50,36.1944228,129.3362513
경구중학교,경북청소년,경북 김천시 아포읍 대성지1길 593-43,36.1587802,128.260222
경구중학교,경북환경연수원,경북 구미시 금오산로 336-97,36.1258311,128.3363634
경구중학교,경북환경연수원,경북 구미시 금오산로 336-97,36.1258311,128.3363634
경구중학교,금융감독원,대구 수성구 달구벌대로 2424 삼성증권빌딩 7층,35.85833785,128.62749349835593
경구중학교,어깨동무 교육지원센터,경북 경산시 펜타힐즈2로 37,35.8274531,128.71858410334056
경구중학교,어깨동무 교육지원센터,경북 경산시 펜타힐즈2로 37,35.8274531,128.71858410334056
경구중학교,어깨동무 교육지원센터,경북 경산시 펜타힐즈2로 37,35.8274531,128.71858410334056
경구중학교,어깨동무 교육지원센터,경북 경산시 펜타힐즈2로 37,35.8274531,128.71858410334056
경구중학교,어깨동무 교육지원센터,경북 경산시 펜타힐즈2로 37,35.8274531,128.71858410334056
경구중학교,어깨동무 교육지원센터,경북 경산시 펜타힐즈2로 37,35.8274531,128.71858410334056
경구중학교,어깨동무 교육지원센터,경북 경산시 펜타힐즈2로 37,35.8274531,128.71858410334056
경구중학교,어깨동무 교육지원센터,경북 경산시 펜타힐즈2로 37,35.8274531,128.71858410334056
경구중학교,어깨동무 교육지원센터,경북 경산시 펜타힐즈2로 37,35.8274531,128.71858410334056
경구중학교,어깨동무 교육지원센터,경북 경산시 펜타힐즈2로 37,35.8274531,128.71858410334056
경구중학교,어깨동무 교육지원센터,경북 경산시 펜타힐즈2로 37,35.8274531,128.71858410334056
경구중학교,한국생산성본부,대구 동구 동대구로 489,35.8769113,128.6262538
경구중학교,활동진흥센터,대구 중구 중앙대로81길 66-5,35.8702574,128.5931978
경산여자중학교,경산마태우리승마장,경북 경산시 자인면 원효로156길 127,35.82159,128.82356
경산여자중학교,경산수학체험센터,"경북 경산시 삼성현로 110 1,2층",35.8198801,128.7186019
경산여자중학교,남부미래교육관,경상북도 경산시 삼성현로 110,35.8198801,128.7186019
경산여자중학교,삼성현 역사문화공원,경북 경산시 남산면 삼성현공원로 59,35.8011788,128.7991059
경산여자중학교,청소년수련원,경북 경산시 자인면 일연로 311-6,35.8297256,128.8145149
경산제일중학교,경산소방서,경상북도 경산시 압량읍 김유신로 12,35.83834935,128.76951226991162
경산제일중학교,남부미래교육관,경상북도 경산시 삼성현로 110,35.8198801,128.7186019
경산제일중학교,의성안전체험관,경북 의성군 다인면 자미로 492,36.4494762,128.3565875
경산제일중학교,청도운문산,경북 청도군 운문면 운문로 763,35.67868,128.98294
경산제일중학교,학생문화예술회관,경북 포항시 북구 환호로 50,36.0735235,129.39151722903216
경산제일중학교,한국에너지공단,대구 달서구 성서공단로 52,35.835766,128.5097092
경산제일중학교,화랑교육원,경상북도 경주시 새남산길 62,35.8556705,129.2248811
경산중학교,남부미래교육관,경상북도 경산시 삼성현로 110,35.8198801,128.7186019
경산중학교,아트힐다락,대구 남구 중앙대로 259,35.8442862,128.5905428
경산중학교,영남일보,대구 동구 동대구로 441,35.8769113,128.6262538
경산중학교,진학사,경북 포항시 북구 우창동로 1,36.0545205,129.3601012
경안중학교,(사)한국청소년체험세상,대구 남구 명덕로 104,35.854606000000004,128.58106212579864
경안중학교,교육사회적기업 포인트,대구 달서구 상원로 100,35.8193114,128.5309507
경안중학교,글로벌인재개발연구원,경북 경산시 강변서로 111,35.820083,128.7311572
경안중학교,핸즈체험터,대구 달성군 화원읍 비슬로487길 34,35.8024072,128.4964134
경안중학교,행복드림인재개발원,대구광역시 동구 장등로 24,35.8718359,128.623812
경주중학교,경주 고도도예,경북 경주시 밝은마을길 19-21,35.8556705,129.2248811
경주중학교,경주 서악서원,경상북도 경주시 서악2길 23,35.8556705,129.2248811
경주중학교,경주 황성공원,경상북도 경주시 황성공원로 29,35.8607325,129.210739
계림중학교,황성숲,경북 경주시 황성동,35.87055,129.21522
구룡포중학교,경상북도교육청 영일도서관,경북 포항시 북구 흥해읍 흥해로 101,36.11381955,129.3459188
구룡포중학교,경주엑스포대공원,경북 경주시 경감로 614,35.8331602,129.2926403
구룡포중학교,커리어넷,대구 서구 달구벌대로 1733 제산빌딩 2층,35.8622279,128.5720354
구룡포중학교,포항 남부 청소년경찰학교,경북 포항시 남구 문예로126번길 15,36.01659,129.3682629
구룡포중학교,포항시 진로진학지원센터,경북 포항시 남구 시청로 1,36.0190154,129.3432304248518
구룡포중학교,포항시 진로진학지원센터,경북 포항시 남구 시청로 1,36.0190154,129.3432304248518
구미신평중학교,전통문화체험학교,경북 칠곡군 기산면 지산로 483,35.98284,128.35992
구미신평중학교,한국 청소년 진로 개발원,대구 수성구 화랑로 190-3 201,35.8738161,128.6403593
구미신평중학교,한국 청소년 진로 개발원,대구 수성구 화랑로 190-3 201,35.8738161,128.6403593
구미신평중학교,핸즈체험터,대구 달성군 화원읍 비슬로487길 34,35.8024072,128.4964134
구미여자중학교,글로벌인재개발연구원,경북 경산시 강변서로 111,35.820083,128.7311572
구미여자중학교,미래핵심인재교육원,경북 구미시 1공단로 169,36.1020797,128.3820047
구미여자중학교,㈜경북숲연구소,경북 구미시 금오산로 419,36.1249459,128.3340271
구미인덕중학교 ,구미대학교,경상북도 구미시 야은로 37,36.1501925,128.2883339216063
구미인덕중학교 ,구미진로체험지원센터,경상북도 구미시 야은로 37,36.1501925,128.2883339216063
구미인덕중학교 ,김천녹색미래과학관,경상북도 김천시 혁신6로 31,36.1245979,128.18457853174817
구미인덕중학교 ,김천녹색미래과학관,경상북도 김천시 혁신6로 31,36.1245979,128.18457853174817
구미인덕중학교 ,나다음에듀,대구 수성구 동대구로80길 14,35.8662683,128.6305281
구미인덕중학교 ,법문화교육센터,경상북도 김천시 문당길 142,36.1467066,128.0914574
구미인덕중학교 ,법문화교육센터,경상북도 김천시 문당길 142,36.1467066,128.0914574
구미인덕중학교 ,법문화교육센터,경상북도 김천시 문당길 142,36.1467066,128.0914574
구미중학교,김천녹색미래과학관,경상북도 김천시 혁신6로 31,36.1245979,128.18457853174817
구미중학교,미래인재교육원,대구 남구 현충로 170,35.847321699999995,128.58504502768838
구미중학교,행복한교육총연합회,대구 중구 대봉로 238,35.8566739,128.6029157
군위중학교,국립칠곡숲체원,경북 칠곡군 석적읍 유학로 532,36.0791924,128.4123174
군위중학교,국제아트앤아카데미,대구 달서구 조암로 6길 20,35.825086,128.5269945
군위중학교,김천녹색미래과학관,경상북도 김천시 혁신6로 31,36.1245979,128.18457853174817
군위중학교,선산청소년수련원,경북 구미시 선산읍 단계동길 270,36.2429557,128.2990433
군위중학교,스프링캠프,대구 달서구 진천로 75-7,35.8100628,128.5274016
군위중학교,한국청소년 체험세상,대구 남구 명덕로 104 계명대학교 대명캠퍼스,35.8575916,128.5801721
군위중학교,한국청소년 체험세상,대구 남구 명덕로 104 계명대학교 대명캠퍼스,35.8575916,128.5801721
근화여자중학교,경주박물관,경북 경주시 일정로 186,35.8289938,129.2216496
근화여자중학교,교육청문화원,경북 포항시 북구 환호로 50,36.0735235,129.39151722903216
금성중학교,핸즈체험터,대구 달성군 화원읍 비슬로487길 34,35.8024072,128.4964134
금성중학교,핸즈체험터,대구 달성군 화원읍 비슬로487길 34,35.8024072,128.4964134
금성중학교,핸즈체험터,대구 달성군 화원읍 비슬로487길 34,35.8024072,128.4964134
금성중학교,핸즈체험터,대구 달성군 화원읍 비슬로487길 34,35.8024072,128.4964134
금성중학교,핸즈체험터,대구 달성군 화원읍 비슬로487길 34,35.8024072,128.4964134
금성중학교,핸즈체험터,대구 달성군 화원읍 비슬로487길 34,35.8024072,128.4964134
금성중학교,핸즈체험터,대구 달성군 화원읍 비슬로487길 34,35.8024072,128.4964134
금오중학교,미래핵심인재교육원,경북 구미시 1공단로 169,36.1020797,128.3820047
금오중학교,한국가이던스,대구 달서구 조암로 14,35.825086,128.5269945
금호여자중학교,미디어아트센터,경북 봉화군 상운면 예봉로 1270-10,36.81648,128.74959
기계중학교,경주임실치즈학교,경상북도 경주시 내남면 내외로 1042,35.7463,129.18683
기계중학교,기라성볼링장,경북 포항시 북구 용당로 164,36.0355791,129.3614492
기계중학교,오즈94카페,경북 포항시 북구 환호공원길 19-1,36.0682127,129.3950327
기계중학교,플라워 바이보윤,경북 포항시 남구 대이로127번길 18-2,36.0260089,129.3383904
기계중학교,환호55골프장,경북 포항시 북구 삼호로 451,36.0427183,129.3675923
기성중학교,"경주 동궁 식물원, 버드파크",경북 경주시 보문로 74-14,35.8495256,129.26150373521676
기성중학교,법원 견학(영덕),경북 영덕군 영덕읍 경동로 8337,36.4157398,129.372212
기성중학교,승마체험 (캠프홀스),경북 울진군 울진읍 명도온양길 66,37.00609,129.37109
기성중학교,울진 엑스포,경북 울진군 근남면 수산리 15,36.9711531,129.3982674
기성중학교,울진군 일원,경북 울진군 금강송면 하원리 산 34,36.94445,129.28631
기성중학교,울진발명센터,경북 울진군 근남면 노음6길 22,36.9499466,129.3791071
길안중학교,경북지역경제교육센터,경북 영주시 대학로 77,36.8097325,128.6217935
길안중학교,꽃담,경북 문경시 산양면 추산로 129-9,36.6201739,128.2397886
길안중학교,꿈여울,대구 남구 안지랑로17길 91,35.8371241,128.5680471
길안중학교,비전드림인재개발원,대구광역시 동구 장등로 24,35.8718359,128.623812
길안중학교,솔밤도요,경북 안동시 서후면 교리평촌길 35,36.6169667,128.6638872
김천중앙중학교,한국청소년 진로개발원,대구 수성구 화랑로 190-3 201 2층,35.8738161,128.6403593
김천중앙중학교,한국청소년 진로개발원,대구 수성구 화랑로 190-3 201 2층,35.8738161,128.6403593
김천중앙중학교,한국청소년 진로개발원,대구 수성구 화랑로 190-3 201 2층,35.8738161,128.6403593
김천중앙중학교,한국청소년 진로개발원,대구 수성구 화랑로 190-3 201 2층,35.8738161,128.6403593
김천중앙중학교,행복드림인재개발원,대구광역시 동구 장등로 24,35.8718359,128.623812
김천중앙중학교,행복드림인재개발원,대구광역시 동구 장등로 24,35.8718359,128.623812
남정중학교,강구정보고등학교,경북 영덕군 강구면 신강구1길 45-5,36.37562,129.37399
단산중학교,경주시,경북 경주시 보문로 544,35.8358871,129.2844338
대도중학교,경상북도교육청문화원,경상북도 포항시 북구 환호로 50,36.0735235,129.39151722903216
대도중학교,청소년수련관,경북 경주시 알천북로 131,35.8432432,129.2481931
대동중학교,경북교육청 문화원,경북 포항시 북구 환호로 50,36.0735235,129.39151722903216
대동중학교,경북교육청 문화원,경북 포항시 북구 환호로 50,36.0735235,129.39151722903216
대동중학교,도산서원,경북 안동시 도산면 도산서원길 154,36.7419465,128.8333403
대동중학교,청소년수련관,경북 경주시 알천북로 131,35.8432432,129.2481931
도개중학교,경주 엑스포,경상북도 경주시 엑스포로 30,35.8381885,129.2899036
도개중학교,구미 가죽공방,경북 구미시 금오산로22안길 15-25,36.1258471,128.3319366
도개중학교,구미 공방,경북 구미시 금오산로 218,36.1249459,128.3340271
도개중학교,구미 라탄공방,경북 구미시 봉곡로21길 16,36.153839,128.3087137
도개중학교,구미 르보네르,경북 구미시 야은로45길 4-3,36.1248245,128.3631479
도개중학교,구미 메리오븐,경북 구미시 옥계신당로7길 46,36.1445221,128.4235758
도개중학교,김천 애니멀파크,경북 김천시 농소면 신촌리 116-1,36.1060556,128.1723657
도개중학교,김천 직지 공원,경상북도 김천시 대항면 직지사길 20,36.124497,128.0221553
도개중학교,대구 아쿠아리움,대구 동구 동부로 149,35.8765658,128.6262441
도개중학교,대구 안전 테마파크,대구광역시 동구 팔공산로 1155,35.9607123,128.6955617
도송중학교,한국청소년 진로개발원,대구 수성구 화랑로 190-3 201,35.8738161,128.6403593
도송중학교,행복한교육총연합회,대구 중구 대봉로 238,35.8566739,128.6029157
도송중학교,행복한교육총연합회,대구 중구 대봉로 238,35.8566739,128.6029157
동로중학교,국제클라이밍센터,경북 문경시 흥덕동 79-6,36.6050058,128.2071233
동로중학교,만천하스카이워크,충북 단양군 적성면 애곡리,36.994977,128.27209
동로중학교,무섬마을,경북 영주시 문수면 무섬로234번길 31-12,36.7307157,128.6210771
동로중학교,문경청소년문화의집,경북 문경시 신흥로 11,36.5852723,128.1953038
동로중학교,예천곤충생태원,경상북도 예천군 효자면 은풍로 1046,36.8101562,128.4570897
동로중학교,예천양수발전소,경북 예천군 은풍면 도효자로 1210,36.739847,128.4368377
동로중학교,웹툰방탈출파크,경북 영주시 문수면 무섬로180번길 16,36.77216455,128.6304223352816
동로중학교,진남철도자전거,경북 문경시 마성면 진남1길 155,36.6535852,128.1283296
동산여자중학교,교육사회적기업 포인트,대구 달서구 상원로 100 아림빌딩 704,35.8193114,128.5309507
동산여자중학교,국립산림치유원,경상북도 예천군 효자면 은풍로 1088-119,36.8101562,128.4570897
동산여자중학교,메타버스,경북 포항시 북구 용흥로 5,36.037634049999994,129.3500595
동산여자중학교,선비촌한과,경상북도 영주시 창진로195번길 316,36.8411052,128.5905771
동산여자중학교,영주선비도서관,경북 영주시 영주로60번길 38,36.8190199,128.6071886
동산여자중학교,행복드림인재개발원,대구 동구 장등로 24,35.8718359,128.623812
마성중학교,북부메이커센터,경북 안동시 영호6길 26,36.5619787,128.7244652
마성중학교,엔도씨 공방,경북 경산시 압량읍 진등길 160-6,35.84206,128.78262
마성중학교,점촌도서관,경북 문경시 신흥로 101,36.5852723,128.1953038
모서중학교 ,나무이음소,경북 상주시 동문2길 54-3,36.4104478,128.1590614
모서중학교 ,대구 교보문고,대구 중구 국채보상로 586,35.8705551,128.5949829
모서중학교 ,상주도서관,경상북도 상주시 상서문1길 127,36.4104478,128.1590614
모서중학교 ,상주박물관,경상북도 상주시 사벌국면 경천로 684,36.45927,128.2400371
모서중학교 ,상주수학체험센터,경북 상주시 왕산로 41,36.4122349,128.1623874
모서중학교 ,상주함창명주길쌈방,경북 상주시 함창읍 무운로 1633,36.5758229,128.1591402
모서중학교 ,상주활공장,경북 상주시 중동면 회상리,36.42631,128.27152012181708
모서중학교 ,예천양궁체험장,경북 예천군 예천읍 양궁장길 38,36.6547,128.4521
모서중학교 ,이랑도예,경북 상주시 상산로 82-3,36.3981763,128.1581772
모서중학교 ,플라워 샤론,경북 상주시 남성3길 32,36.4104478,128.1590614
무산중학교,경북문화재단 문화재연구원,경북 영천시 금호읍 원제2길 38,35.92362,128.89645
무산중학교,국립낙동강생물자원관,경상북도 상주시 도남2길 137,36.4447045,128.2554417
무산중학교,김천녹색미래과학관,경상북도 김천시 혁신6로 31,36.1245979,128.18457853174817
무산중학교,김천녹색미래과학관,경상북도 김천시 혁신6로 31,36.1245979,128.18457853174817
무산중학교,꽃밭놀이터,경북 경주시 원화로 248,35.8582247,129.2198852
무산중학교,꽃밭놀이터,경북 경주시 원화로 248,35.8582247,129.2198852
무산중학교,상명도예,경북 경주시 배반중리안길 24-3,35.8556705,129.2248811
무산중학교,상명도예,경북 경주시 배반중리안길 24-3,35.8556705,129.2248811
무산중학교,알숨달숨사회적협동조합,경북 경주시 현곡면 가삼골1길 19-1,35.89356,129.17407
무산중학교,해와달,경북 포항시 남구 오천읍 정몽주로 714-7,35.9868667,129.4070743
무산중학교,해와달,경북 포항시 남구 오천읍 정몽주로 714-7,35.9868667,129.4070743
무산중학교,해와달,경북 포항시 남구 오천읍 정몽주로 714-7,35.9868667,129.4070743
무산중학교,행복드림인재개발원,대구광역시 동구 장등로 24,35.8718359,128.623812
무을중학교,꿈여울,대구광역시 달서구 도원동 번지 2층 1437-8,35.8066874,128.5358555
무을중학교,하하수미,경북 성주군 월항면 대산2길 72,35.97119,128.3058
문경서중학교,김천녹색미래과학관,경상북도 김천시 혁신6로 31,36.1245979,128.18457853174817
문경서중학교,문경발명교육센터,경북 문경시 호계면 태봉1길 25,36.6312457,128.2058608
문경서중학교,문경불정자연휴양림,경상북도 문경시 불정길 180,36.5858541,128.1870612
문경서중학교,문경활공랜드,경상북도 문경시 문경읍 활공장길 80,36.7373158,128.1070695
문경서중학교,미래인재교육원,대구 남구 현충로 170,35.847321699999995,128.58504502768838
문경서중학교,상주생물자원간,경북 상주시 도남2길 137,36.4447045,128.2554417
문경서중학교,안동산힘항공관리소,경북 안동시 바람이길 215,36.5420192,128.7266552
문경서중학교,의성안전체험관,경북 의성군 다인면 자미로 492,36.4494762,128.3565875
문경서중학교,점촌도서관,경상북도 문경시 호서로 133,36.6021773,128.2023075
문경서중학교,청소년문화의집,경북 문경시 신흥로 11,36.5852723,128.1953038
문경여자중학교,한국코미디타운,경상북도 청도군 이서면 이서로 565,35.7066157,128.6842598
문경중학교,경북지역경제교육센터,경북 영주시 대학로 77,36.8097325,128.6217935
문경중학교,경상북도발명교육체험관,경상북도 경주시 첨성로 97,35.8341713,129.2154819
문경중학교,문경교육지원청,경상북도 문경시 호계면 태봉1길 25,36.6312457,128.2058608
문경중학교,문경청소년 문화의집,경북 문경시 신흥로 11,36.5852723,128.1953038
문경중학교,성보촌,경상북도 문경시 호계면 상무로 377,36.6470719,128.1778732
문경중학교,종이마루,경북 문경시 매봉2길 11-14,36.5861654,128.1831327
문경중학교,핸즈체험터,대구 달성군 화원읍 비슬로487길 34,35.8024072,128.4964134
문명중학교,경산시립박물관,경상북도 경산시 박물관로 46,35.8149088,128.7634874
문명중학교,대구한의대,대구광역시 수성구 신천동로 136,35.8626979,128.6110868
문명중학교,영남대,대구광역시 남구 현충로 170,35.847321699999995,128.58504502768838
문명중학교,운문사,경상북도 청도군 운문면 운문사길 104,35.74829,128.96022
벽진중학교,대구 이월드,대구 달서구 두류공원로 200,35.8522393,128.5623122
별빛중학교,경주,경상북도 경주시 건천읍 경주역로 80,35.83680925,129.08845997945525
별빛중학교,대구한의대학교,경상북도 경산시 한의대로 1,35.825122,128.741329
별빛중학교,합천영상테마파크,경남 합천군 용주면 합천호수로 757,35.5442523,128.0969059
부계중학교,경상북도교육청 남부메이커교육센터,경북 경산시 삼성현로 110,35.8198801,128.7186019
부계중학교,군위 청소년문화예술체험,경상북도 군위군 군위읍 무성리 709-1,36.2399401,128.568785
부구중학교,강구정보고등학교,경북 영덕군 강구면 신강구1길 45-5,36.37562,129.37399
부구중학교,울진국립해양과학관,경북 울진군 죽변면 해양과학길 8,37.0749605,129.4052629
부구중학교,울진발명교육센터,경북 울진군 근남면 노음6길 22,36.9499466,129.3791071
부구중학교,정크&트릭아트전시관,경북 영덕군 영덕읍 해맞이길 254-70,36.42963,129.39175
부구중학교,해양수련원,경북 포항시 북구 흥해읍 해안로 1252,36.0917287,129.4173618
부석중학교,경북발명체험교육관,경북 경주시 첨성로 97,35.8341713,129.2154819
부석중학교,경북평생교육원,경상북도 경산시 진량읍 봉황길 34,35.884296,128.8216382
부석중학교,경북평생교육원,경상북도 경산시 진량읍 봉황길 34,35.884296,128.8216382
부석중학교,교육사회적기업 포인트,대구 달서구 상원로 100 아림빌딩 704,35.8193114,128.5309507
부석중학교,교육사회적기업 포인트,대구 달서구 상원로 100 아림빌딩 704,35.8193114,128.5309507
부석중학교,교육사회적기업 포인트,대구 달서구 상원로 100 아림빌딩 704,35.8193114,128.5309507
부석중학교,국립산림치유원,경상북도 예천군 효자면 은풍로 1088-119,36.8101562,128.4570897
부석중학교,더클레이도예공방,경북 영주시 대학로298번길 20,36.8222405,128.6072404
부석중학교,에듀스카이,대구 중구 동성로6길 71,35.86848365,128.5992823558483
사동중학교,글로벌인재개발연구원,경북 경산시 강변서로 111,35.820083,128.7311572
사동중학교,나다음에듀,대구 수성구 동대구로80길 14,35.8662683,128.6305281
사동중학교,미래인재교육원,대구 남구 현충로 170,35.847321699999995,128.58504502768838
사동중학교,지오펀창직 진로대구센터,대구광역시 수성구 들안로 274,35.8639697,128.6180897
사동중학교,지오펀창직 진로대구센터,대구광역시 수성구 들안로 274,35.8639697,128.6180897
사동중학교,한국청소년 진로개발원,대구 수성구 화랑로 190-3 201,35.8738161,128.6403593
산내중학교,경상북도교육청 해양수련원,경북 영덕군 병곡면 고래불로 201,36.5673706,129.4222059
산내중학교,경주 금강공방,경북 경주시 내남면 용장4길 10,35.7508972,129.1966246
산내중학교,경주교육지원청,경북 경주시 초당길 9,35.8466485,129.2302702
산동중학교,메이커교육관,경북 구미시 박정희로 155,36.1113716,128.356324
산동중학교,카페,경상남도 김해시 율하카페길 1(관동동),35.1760392,128.8137851
산북중학교,경상북도교육청북부메이커센터,경북 안동시 영호6길 26,36.5619787,128.7244652
산북중학교,상주월드컵볼링장,경북 상주시 토성로 146,36.4123628,128.1491075
산북중학교,예천국제양궁장,경북 예천군 예천읍 양궁장길 38,36.6547,128.4521
산양중학교,국립칠곡숲체원,경북 칠곡군 석적읍 유학로 532,36.0791924,128.4123174
산양중학교,국제 승마장,경상북도 상주시 사벌국면 국제승마장로 1,36.4104478,128.1590614
산양중학교,점촌공공도서관,경북 문경시 호서로 133,36.6021773,128.2023075
산양중학교,포항,경상북도 포항시 남구 연일읍 대구포항고속도로 67,35.99816,129.32687
상도중학교,경상북도교육청문화원,경상북도 포항시 북구 환호로 50(양덕동),36.0720456,129.391512
상도중학교,미래인재교육원,경북 구미시 1공단로 169,36.1020797,128.3820047
상도중학교,신원도예 교육센터,경기도 용인시 처인구 이동읍 경기동로 1063,37.1143098,127.214592
상모중학교,경북숲연구소,경북 구미시 금오산로 419,36.1249459,128.3340271
상모중학교,한국청소년 진로개발원,대구 수성구 화랑로 190-3,35.8738161,128.6403593
상모중학교,행복드림인재개발원,대구 동구 장등로 24 ,35.8718359,128.623812
상주중학교,국립 낙동강 생물 자원관,경상북도 상주시 도남2길 137(도남동),36.4366002,128.2504499
석적중학교,경북과학대학,경상북도 군위군 군위읍 중앙6길 3,36.2399401,128.568785
석적중학교,미래인재교육원,경북 구미시 1공단로 169,36.1020797,128.3820047
석적중학교,빛하민커뮤니케이션,경북 김천시 아포읍 한지2길,36.1582024,128.2603792
석적중학교,정인에듀,경북 칠곡군 기산면 칠곡대로 1315,35.9927198,128.3872542
석전중학교,글로벌인재개발연구원,경북 경산시 강변서로 111,35.820083,128.7311572
석전중학교,빛하민커뮤니케이션,경북 김천시 아포읍 한지2길,36.1582024,128.2603792
석전중학교,어깨동무 교육지원센터,경북 경산시 펜타힐즈2로 37,35.8274531,128.71858410334056
선덕여자중학교,경북지역경제교육센터,경북 영주시 대학로 77,36.8097325,128.6217935
선덕여자중학교,한국비전 교육원,대구 수성구 들안로 353,35.8639697,128.6180897
선덕여자중학교,화랑교육원,경상북도 경주시 새남산길 62(남산동),35.8556705,129.2248811
선덕여자중학교,화랑교육원,경상북도 경주시 새남산길 62(남산동),35.8556705,129.2248811
성산중학교,대구공업대,대구광역시 달서구 구마로 146(본동),35.8372531,128.5467398
성산중학교,삼진어묵,대구 동구 동부로 149,35.8765658,128.6262441
성산중학교,영진전문대,대구광역시 북구 복현로 35(복현동),35.9001853,128.6197536
성산중학교,한국장학재단,대구 동구 신암로 125,35.8774839,128.6071275
성신여자중학교,허씨비단공장,경북 상주시 함창읍 어풍로 19,36.5553126,128.2000455
성의중학교,국립낙동강생물자원관,경상북도 상주시 도남2길 137(도남동),36.4366002,128.2504499
성의중학교,김천녹색미래과학과,경북 김천시 혁신6로 31,36.1245979,128.18457853174817
성의중학교,김천시 교육지원청,경상북도 김천시 충효길 19(성내동),36.1211655,128.1183869
성의중학교,"불국사, 원성왕릉",경북 경주시 불국로 385,35.788994849999995,129.33089016509152
성의중학교,학생문화예술센터,경상북도 김천시 농소면 농남로 52-9,36.09132,128.23089
성주여자중학교,경북교육청 남부메이커교육센터,경상북도 경산시 삼성현로 110,35.8198801,128.7186019
성주여자중학교,경상북도교육청 문화원,경상북도 포항시 북구 환호로 50(양덕동),36.0720456,129.391512
성주여자중학교,경상북도청소년활동 진흥센터,경북 안동시 축제장길 20,36.5606629,128.7303866
성주여자중학교,경상북도청소년활동 진흥센터,경북 안동시 축제장길 20,36.5606629,128.7303866
성주여자중학교,국립산림치유원,경상북도 예천군 효자면 은풍로 1088-119,36.8101562,128.4570897
성주여자중학교,국립산림치유원,경상북도 예천군 효자면 은풍로 1088-119,36.8101562,128.4570897
성주여자중학교,국립산림치유원,경상북도 예천군 효자면 은풍로 1088-119,36.8101562,128.4570897
성주여자중학교,대구경북영어마을,경북 칠곡군 지천면 연화리 744,35.95653,128.48785
성주여자중학교,대구경북영어마을,경북 칠곡군 지천면 연화리 744,35.95653,128.48785
성주여자중학교,대구경북영어마을,경북 칠곡군 지천면 연화리 744,35.95653,128.48785
성주여자중학교,성주군 청소년상담복지센터,경북 성주군 성주읍 성주순환로 271-9,35.922856,128.2904741
성주여자중학교,성주군 청소년상담복지센터,경북 성주군 성주읍 성주순환로 271-9,35.922856,128.2904741
성주여자중학교,성주군 청소년상담복지센터,경북 성주군 성주읍 성주순환로 271-9,35.922856,128.2904741
성주여자중학교,성주군 청소년상담복지센터,경북 성주군 성주읍 성주순환로 271-9,35.922856,128.2904741
성주중학교,메이커교육관,경북 구미시 박정희로 155,36.1113716,128.356324
성주중학교,메타버스,경북 포항시 북구 용흥로 5,36.037634049999994,129.3500595
성주중학교가천분교장,AI인공지능교육센터,경북 의성군 봉양면 봉호로 14,36.3236472,128.5858425
성주중학교가천분교장,농촌 교육장,경북 포항시 남구 연일읍 중명길 161,35.9935499,129.3161085
성주중학교가천분교장,성주중학교가천분교장,경북 성주군 가천면 창천5길 13,35.8868437,128.1603287
성주중학교가천분교장,성주중학교가천분교장,경북 성주군 가천면 창천5길 13,35.8868437,128.1603287
성주중학교가천분교장,성주중학교가천분교장,경북 성주군 가천면 창천5길 13,35.8868437,128.1603287
성주중학교가천분교장,성주중학교가천분교장,경북 성주군 가천면 창천5길 13,35.8868437,128.1603287
소수중학교,경북 경주 (경북발명교육 체험관),경상북도 경주시 유림로13번길 148-19(용강동),35.8766955,129.2337413
소수중학교,경북 영주 (경북전문대학교),경상북도 영주시 봉현면 신재로 932,36.8614137,128.525022
소수중학교,경북 예천 (예천활체험센터),경상북도 예천군 예천읍 시장로 163,36.6547,128.4521
소천중학교,국립백두대간수목원,경상북도 봉화군 춘양면 문수로 2160-3,36.9788,128.73334
소천중학교,닭실마을,경상북도 봉화군 봉화읍 충재길 87-23,36.89007,128.71101
소천중학교,롯데시네마&VR체험장,대구광역시 달서구 성서로 414(이곡동),35.8540989,128.5072909
소천중학교,백두대간 협곡열차,경북 봉화군 소천면 분천리 964-1,36.91711,129.03944
소천중학교,와이즈멘토,대구 달서구 용산서로 14,35.8575825,128.528977
소천중학교,울진군요트학교,경북 울진군 후포면 후포리,36.69187,129.44664
소천중학교,한울에너지팜,경북 울진군 북면 울진북로 2040,37.0754149,129.3984471
송도중학교,청소년 체험세상,대구 남구 명덕로 104,35.854606000000004,128.58106212579864
송도중학교,행복한 체험숲,대구 달서구 앞산순환로 293,35.813689,128.5495522
송도중학교,행복한 체험숲 ,대구 달서구 앞산순환로 293,35.813689,128.5495522
순심여자중학교,칠곡 수학체험센터,경북 칠곡군 시덕로 311 ,36.0579935,128.3898448
순심여자중학교,호국유적지(평화기념관),경북 칠곡군 석적읍 강변대로 1580,36.036934,128.4118002
신광중학교,경북전문대학,경상북도 영주시 대학로 77(휴천동),36.8112923,128.6075137
신광중학교,경상북도학생문화원,경상북도 포항시 북구 환호로 50,36.0735235,129.39151722903216
신광중학교,김천과학관,경상북도 김천시 혁신6로 31(율곡동),36.1245979,128.18457853174817
신광중학교,포항시 진로진학지원센터,경북 포항시 북구 중앙로 325,36.0484407,129.3631031
신광중학교,포항시 진로진학지원센터,경북 포항시 북구 중앙로 325,36.0484407,129.3631031
신광중학교,포항환경학교,경북 포항시 북구 신광면 비학로1242번길 10,36.13985,129.26106
신녕중학교,경산수학체험센터,경북 경산시 삼성현로 110,35.8198801,128.7186019
신녕중학교,대구동부 경찰서형사과(재능기부),대구 동구 반야월북로 209,35.8731808,128.7275422
신녕중학교,반반협동조합,대구 동구 동호로9길 65,35.8697622,128.7318099
신녕중학교,삐삐가죽공예,경북 경산시 백천길 69 ,35.825122,128.741329
신녕중학교,어깨동무 교육지원센터,경북 경산시 펜타힐즈2로 37,35.8274531,128.71858410334056
신녕중학교,어깨동무 교육지원센터,경북 경산시 펜타힐즈2로 37,35.8274531,128.71858410334056
신녕중학교,행복드림인재개발원,대구 동구 장등로 24,35.8718359,128.623812
신흥중학교,(사) 한국청소년 체험세상 (찾아오는 진로직업체험),대구 남구 명덕로 104,35.854606000000004,128.58106212579864
신흥중학교,다솜인성개발 교육원 (진로 인성 캠프),경북 포항시 남구 희망대로 727-4,36.0366253,129.3316231
쌍림중학교,미래인재교육원,대구 남구 현충로 170,35.847321699999995,128.58504502768838
쌍림중학교,평전도예,경북 고령군 쌍림면 산당청계길 96,35.68346,128.22862
아포중학교,경상북도 메이커교육관,경북 구미시 박정희로 155,36.1113716,128.356324
아포중학교,경상북도 메이커교육관,경북 구미시 박정희로 155,36.1113716,128.356324
아포중학교,김천소방서,경상북도 김천시 강변로 219(양천동),36.1216969,128.1299351
아포중학교,김천학생문화 예술센터,경상북도 김천시 농소면 농남로 52-9,36.09132,128.23089
아화중학교,교보문고,대구 북구 동암로 104,35.9439693,128.56239009787706
아화중학교,대구 근대화골목 ,대구 중구 경상감영길 67,35.8723335,128.5958236
아화중학교,한국해양과학기술원,부산광역시 영도구 해양로 385(동삼동),35.0777642,129.0749898
안강여자중학교,구미메이커교육관,경북 구미시 박정희로 155,36.1113716,128.356324
안강여자중학교,구미메이커교육관,경북 구미시 박정희로 155,36.1113716,128.356324
안강여자중학교,국립청소년해양수련원,경북 영덕군 영덕읍 영덕대게로 911-44,36.4685589,129.4350989
안강여자중학교,미래인재개발원,대구 중구 달성로 10,35.8768012,128.5819249
안강여자중학교,안강전통시장,경북 경주시 안강읍 양월리 1353-7,35.9910535,129.2205418
안강여자중학교,학생해양수련원,경북 포항시 북구 해안로 1252,36.0918772,129.4172827
안계중학교,대구 동성로· 근대골목,대구 중구 용덕동 12,35.87403,128.59715
안계중학교,대구 이월드,대구 달서구 두류공원로 200,35.8522393,128.5623122
안계중학교,목련관,경북 김천시 아포읍 한지길 80,36.1604688,128.2617196
안계중학교,목련관,경북 김천시 아포읍 한지길 80,36.1604688,128.2617196
안계중학교,문경새재,경상북도 문경시 문경읍 새재1길 47,36.745462,128.0826921
안계중학교,봉화 레프팅장,경북 봉화군 명호면 청량로 1136-12,36.78536,128.88919
안계중학교,울진 국립해양과학관 후포 요트교실,경북 울진군 죽변면 해양과학길 8,37.0749605,129.4052629
안계중학교,의성작은영화관,경북 의성군 의성읍 후죽4길 6,36.3547522,128.6961357
안계중학교,"의성향교, 사천마을",경북 의성군 의성읍 도동리,36.34389,128.70155
안동여자중학교,글로벌인재개발연구원,경북 경산시 강변서로 111 ,35.820083,128.7311572
안동여자중학교,빛하민커뮤니케이션,경북 김천시 아포읍 한지2길,36.1582024,128.2603792
안동여자중학교,한국청소년 체험세상,경북 청도군 이서면 대곡길 324-50,35.7091262,128.6971309
압량중학교,국립청도숲체원,경상북도 청도군 운문면 운문로 755,35.67868,128.98294
약목중학교,겨레문화사업단,경북 칠곡군 왜관읍 석전로7길 12,35.9752,128.42343
약목중학교,행복드림인재개발원,대구 동구 장등로 24,35.8718359,128.623812
영광중학교,경북전문대,경북 영주시 대학로 77,36.8097325,128.6217935
영광중학교,경북전문대,경북 영주시 대학로 77,36.8097325,128.6217935
영광중학교,국립공원,경북 영주시 봉현면 소백로 1794,36.8447838,128.5256316
영광중학교,산림치유원,경상북도 예천군 효자면 은풍로 1088-119,36.8101562,128.4570897
영광중학교,자닮,경북 영주시 풍기읍 삼가로 100,36.9082578,128.5189174
영남삼육중학교,경산 수학체험관,경상북도 경산시 서부1동 539-14,35.8142275,128.72489572841278
영남삼육중학교,대구국립과학관,대구광역시 달성군 유가읍 테크노대로6길 20,35.6890758,128.466722
영남삼육중학교,삼성현 역사문화공원,경북 경산시 삼성현공원로 59,35.8011788,128.7991059
영덕여자중학교,장계향문화체험 교육원,경북 영양군 석보면 두들마을1길 42,36.55488,129.1683
영동중학교,대구한의대학교,경상북도 경산시 한의대로 1(유곡동),35.825122,128.741329
영동중학교,장애인복지관,경상북도 영주시 원당로52번길 25(휴천동),36.805685,128.624054
영동중학교,장애인복지관,경상북도 영주시 원당로52번길 25(휴천동),36.805685,128.624054
영동중학교,한국청소년 체험세상,경북 청도군 이서면 대곡길 324-50,35.7091262,128.6971309
영동중학교,한국청소년 체험세상,경북 청도군 이서면 대곡길 324-50,35.7091262,128.6971309
영안중학교,경주스마트미디어센터,경북 경주시 경감로 587-18,35.8331602,129.2926403
영안중학교,산림환경연구원,경상북도 경주시 통일로 366(남산동),35.7978652,129.2466563
영안중학교,포항공과대학교,경상북도 포항시 남구 청암로 77(지곡동),36.0120126,129.3242764
영주여자중학교 ,경북전문대,경북 영주시 대학로 77,36.8097325,128.6217935
영주여자중학교 ,영주여자중학교 ,경상북도 영주시 신재로 14(가흥동),36.83016,128.60607
영주여자중학교 ,영주여자중학교 ,경상북도 영주시 신재로 14(가흥동),36.83016,128.60607
영주여자중학교 ,청소년진로개발원,대구 수성구 화랑로 190-3,35.8738161,128.6403593
영주여자중학교 ,행복드림인재개발원,대구 동구 장등로 24,35.8718359,128.623812
영해중학교,강구정보고등학교,경북 영덕군 강구면 신강구1길 45-5,36.37562,129.37399
영해중학교,국립청소년해양센터,경북 영덕군 영덕읍 영덕대게로 911-44,36.4685589,129.4350989
영해중학교,글로벌인재개발연구원,경북 경산시 강변서로 111 ,35.820083,128.7311572
영해중학교,금강공방,경북 경주시 내남면 용장4길 10,35.7508972,129.1966246
영해중학교,사회적협동조합숲과사람,경북 포항시 남구 연일읍 원서길118번길 7,35.9887635,129.3293707
예천중학교,예천천문우주센터,경북 예천군 감천면 충효로 1078,36.68384,128.47998
예천중학교,예천천문우주센터,경북 예천군 감천면 충효로 1078,36.68384,128.47998
오태중학교,경북 숲연구소,경북 구미시 금오산로 419,36.1249459,128.3340271
오태중학교,나다음에듀,대구 수성구 동대구로80길 14,35.8662683,128.6305281
오태중학교,나다음에듀,대구 수성구 동대구로80길 14,35.8662683,128.6305281
옥계동부중학교,한국청소년 진로개발원,대구 수성구 화랑로 190-3,35.8738161,128.6403593
옥계동부중학교,한국청소년 진로개발원,대구 수성구 화랑로 190-3,35.8738161,128.6403593
옥계중학교,미래인재교육원,대구 남구 현충로 170,35.847321699999995,128.58504502768838
옥계중학교,스프링캠프,대구 달서구 진천로 75-7,35.8100628,128.5274016
왜관중학교,경상북도교육청,경상북도 안동시 단원로 71-1(운안동),36.57173,128.70953
왜관중학교,국제문화센터,경북 칠곡군 석적읍 유학로 32,36.0791924,128.4123174
왜관중학교,다원에듀테크,경북 칠곡군 기산면 칠곡대로 1309,35.9927198,128.3872542
왜관중학교,달보드레,경북 구미시 봉곡남로17길 13,36.1525216,128.3135303
왜관중학교,정인에듀,경북 칠곡군 기산면 칠곡대로 1315,35.9927198,128.3872542
왜관중학교,정인에듀,경북 칠곡군 기산면 칠곡대로 1315,35.9927198,128.3872542
용궁중학교,달소반공방,경북 예천군 예천읍 군청길 12,36.6547,128.4521
용궁중학교,문경교육청,경북 문경시 호계면 태봉1길 25,36.6312457,128.2058608
용궁중학교,씨티락볼링장,경북 안동시 풍천면 검무로 4-8,36.5561924,128.5065299
용궁중학교,안동수학체험센터,경상북도 안동시 풍천면 지풍로 1434-11,36.557593,128.5149313
용궁중학교,예천교육청,경상북도 예천군 예천읍 효자로 171-24,36.6665581,128.4625649
용궁중학교,예천진호 국제양궁장,경상북도 예천군 예천읍 양궁장길 38,36.6547,128.4521
용궁중학교,예천천문우주센터,경북 예천군 감천면 충효로 1078,36.68384,128.47998
용궁중학교,이월드,대구 달서구 두류공원로 200,35.8522393,128.5623122
용궁중학교,임하댐 수상레저,경북 안동시 임동면 선착장길 71,36.5673991,128.9199738
용궁중학교,팜엔팜 커피스토리,경북 예천군 예천읍 군청앞길 1,36.6547,128.4521
용암중학교 ,고령고등학교,경상북도 고령군 대가야읍 우륵로 63,35.73209,128.25741
용암중학교 ,국립청소년해양센터,경북 영덕군 영덕읍 영덕대게로 911-44,36.4685589,129.4350989
용암중학교 ,국립칠곡숲체원,경북 칠곡군 석적읍 유학로 532 ,36.0791924,128.4123174
용암중학교 ,금수문화마을,경상북도 성주군 금수면 성주로 1903,35.9250297,128.1205093
용암중학교 ,금오산 탐방길,경북 구미시 남통동 산 33,36.1208535,128.3158263
용암중학교 ,대가야 체험센터,경북 고령군 대가야읍 신남로 61,35.73209,128.25741
용암중학교 ,대가야 체험센터,경북 고령군 대가야읍 신남로 61,35.73209,128.25741
용암중학교 ,도산서원,경상북도 안동시 도산면 도산서원길 154,36.7419465,128.8333403
용암중학교 ,영덕신재생 에너지관,경북 영덕군 영덕읍 해맞이길 254-20 ,36.42963,129.39175
용암중학교 ,영천전자고,경북 영천시 화남면 천문로 1709 ,36.04192,128.90392
용암중학교 ,임고서원,경상북도 영천시 임고면 포은로 447,36.0384683,128.9786055
용암중학교 ,하하수미 농촌교육장,경상북도 성주군 월항면 대산리 1090번지,35.97119,128.3058
용암중학교 ,한국국학진흥원,경상북도 안동시 도산면 퇴계로 1997,36.7591035,128.8347626
울진중학교,울진 연호 문화 센터,경상북도 울진군 울진읍 연호로 47,36.9936259,129.4032918
울진중학교,울진 연호 문화 센터,경상북도 울진군 울진읍 연호로 47,36.9936259,129.4032918
월성중학교,(사)경주최부자민족정신선양회,성동동 233-5번지 경주시 경상북도,35.8467302,129.219645
월성중학교,경상북도교육청문화원,경상북도 포항시 북구 환호로 50(양덕동),36.0720456,129.391512
월성중학교,경주제과제빵,경북 경주시 용담로 86-1,35.8719953,129.1953097
월성중학교,미래인재교육원,대구 남구 현충로 170,35.847321699999995,128.58504502768838
월성중학교,우와또와농장,경북 경주시 강동면 천강로 1228-130,35.93591,129.28856
유강중학교,경상북도교육청 문화원,경상북도 포항시 북구 환호로 50(양덕동),36.0720456,129.391512
유강중학교,"경주도자기공방, 포항교육지원청",경북 포항시 북구 삼흥로 416,36.097287699999995,129.37438319321308
유강중학교,"대구경북과학기술원(DGIST), 국립대구과학관",대구 달성군 현풍읍 테크노중앙대로 333,35.70414005000001,128.45792036207115
유강중학교,포스코,경상북도 포항시 남구 포스코대로 317(상도동),36.0129726,129.369643
율곡중학교,구미경찰학교,경북 구미시 송원동로 16,36.1188414,128.3470946
율곡중학교,국립대구과학관,대구광역시 달성군 유가읍 테크노대로6길 20,35.6890758,128.466722
율곡중학교,국립종자원,경북 김천시 혁신8로 119,36.12628545,128.19291404888932
율곡중학교,김천소방서,경상북도 김천시 강변로 219(양천동),36.1216969,128.1299351
율곡중학교,녹색미래과학관,경상북도 김천시 혁신6로 31(율곡동),36.1245979,128.18457853174817
율곡중학교,대구지방법원 김천지원,경상북도 김천시 물망골길 39(삼락동),36.07783,128.09022
율곡중학교,삼대두부공방,경북 김천시 대항면 대룡1길 48-17,36.124497,128.0221553
은풍중학교,"경북교육연구원, 주토피움",경북 포항시 북구 우미길 93,36.0466577,129.3522640783187
은풍중학교,신라식물원,경상북도 예천군 감천면 충효로 1752,36.68384,128.47998
은풍중학교,예천곤충생태원,경상북도 예천군 효자면 은풍로 1046,36.8101562,128.4570897
은풍중학교,예천소방서,경상북도 예천군 감천면 충효로 1387,36.68384,128.47998
은풍중학교,예천우주천문관,경북 예천군 감천면 충효로 1078,36.68384,128.47998
의성중학교,화랑승마장,경북 경주시 현곡면 상구리 1078-2,35.89356,129.17407
의성중학교,화랑승마장,경북 경주시 현곡면 상구리 1078-2,35.89356,129.17407
의성중학교,화랑승마장,경북 경주시 현곡면 상구리 1078-2,35.89356,129.17407
의성중학교,화랑승마장,경북 경주시 현곡면 상구리 1078-2,35.89356,129.17407
의성중학교,화랑승마장,경북 경주시 현곡면 상구리 1078-2,35.89356,129.17407
의성중학교,화랑승마장,경북 경주시 현곡면 상구리 1078-2,35.89356,129.17407
의성중학교,화랑승마장,경북 경주시 현곡면 상구리 1078-2,35.89356,129.17407
의흥중학교,경상북도교육청 남부메이커교육센터,경북 구미시 박정희로 155,36.1113716,128.356324
의흥중학교,고지바위,경상북도 봉화군 봉성면 고지바위길 3,36.9076,128.80851
의흥중학교,소풍공방,경북 고령군 다산면 상곡길 85,35.82152,128.42451
의흥중학교,앤디스코나커피공장,경상북도 군위군 군위읍 대북길 132,36.2688365,128.5652316
의흥중학교,풀빛공방,경북 군위군 부계면 남산2길 8,36.07075,128.65745
인동중학교,경상북도교육청메이커교육관,경북 구미시 박정희로 155,36.1113716,128.356324
인동중학교,에이블,경북 칠곡군 석적읍 석적로 955-19,36.0751451,128.3934432
인동중학교,한국청소년 체험세상,경북 청도군 이서면 대곡길 324-50,35.7091262,128.6971309
인동중학교,한국청소년 체험세상,경북 청도군 이서면 대곡길 324-50,35.7091262,128.6971309
인동중학교,행복드림인재개발원,대구 동구 장등로 24,35.8718359,128.623812
인동중학교,행복한교육총연합회,대구 중구 대봉로 238,35.8566739,128.6029157
자인중학교,경산소방서,경상북도 경산시 압량읍 김유신로 12,35.83834935,128.76951226991162
자인중학교,뜨락,서울특별시 동작구 남부순환로 2073-1(사당동),37.4767722,126.9799844
자인중학교,마테우리승마장,경북 경산시 자인면 원효로156길 127,35.82159,128.82356
자인중학교,삐삐가죽공예,경북 경산시 백천길 69 ,35.825122,128.741329
자인중학교,호산대,대구광역시 동구 화랑로 155(효목동),35.8752651,128.6769886
자인중학교,호산대,대구광역시 동구 화랑로 155(효목동),35.8752651,128.6769886
장산중학교,경산시립박물관,경상북도 경산시 박물관로 46(사동),35.8149088,128.7634874
장산중학교,대구과학관,대구광역시 달성군 유가읍 테크노대로6길 20,35.6890758,128.466722
장산중학교,대구아쿠아리움,대구 동구 동부로 149 ,35.8765658,128.6262441
장산중학교,미래인재교육원,대구 남구 현충로 170,35.847321699999995,128.58504502768838
장산중학교,삼성현 역사문화공원,경북 경산시 삼성현공원로 59,35.8011788,128.7991059
장산중학교,청도운문산숲체원,경상북도 청도군 운문면 운문로 755 KR,35.67868,128.98294
장산중학교,한국청소년 진로개발원,대구 수성구 화랑로 190-3,35.8738161,128.6403593
장흥중학교,경상북도교육청문화원,경상북도 포항시 북구 환호로 50(양덕동),36.0720456,129.391512
장흥중학교,경주국립박물관,경상북도 경주시 일정로 186(인왕동),35.8289938,129.2216496
장흥중학교,경주임실치즈학교,경상북도 경주시 내남면 내외로 1042,35.7463,129.18683
죽변중학교,교육청주관 (국립해양과학관),경북 울진군 죽변면 해양과학길 8,37.0749605,129.4052629
죽변중학교,안동대학교,경상북도 안동시 경동로 1375(송천동),36.5378416,128.8331283
죽변중학교,요트학교,경상남도 거제시 일운면 지세포해안로 43,34.832745,128.70251636340612
죽변중학교,행복한교육,대구 서구 평리로 348,35.8655965,128.5632995
지보중학교,경북메이커교육관,경북 구미시 박정희로 155,36.1113716,128.356324
지보중학교,경북북부메이커센터,경북 구미시 박정희로 155,36.1113716,128.356324
지보중학교,"문경모심정,카트월드",경북 문경시 마성면 봉생1길 13,36.692616,128.1167087
지보중학교,안동산림항공관리소,경상북도 안동시 바람이길 215(정하동),36.5420192,128.7266552
지보중학교,영주미소머금고,경북 영주시 봉현면 소백로 1727,36.8447838,128.5256316
지보중학교,예천JS바리스타학원,경북 예천군 예천읍 효자로 95,36.6570433,128.4540112
지보중학교,예천순수애천연공방,경북 예천군 예천읍 대심1길 42-5,36.6520861,128.4402674
지품중학교,강구정보고 크리에이터팩토리센터,경북 영덕군 강구면 신강구1길 45-5,36.37562,129.37399
지품중학교,강구정보고 크리에이터팩토리센터,경북 영덕군 강구면 신강구1길 45-5,36.37562,129.37399
지품중학교,안전체험관(의성),경북 의성군 다인면 자미로 492,36.4494762,128.3565875
지품중학교,영덕 옹기체험장,경상북도 영덕군 지품면 오천2길 38,36.45856,129.25209
지품중학교,영덕 지품 체리농장,경북 영덕군 강구면 하저리 355,36.40129,129.40077
지품중학교,영덕소방서 안전체험장,경북 영덕군 영덕읍 경동로 8401,36.4157398,129.372212
지품천중학교,국립김천치유의숲,경북 김천시 증산면 수도길 1237-89,35.8523449,128.0021048
지품천중학교,국립종자원,경북 김천시 혁신8로 119,36.12628545,128.19291404888932
지품천중학교,김천대학,경상북도 김천시 대학로 129(삼락동),36.1359812,128.0937651
지품천중학교,김천소방서,경상북도 김천시 강변로 219(양천동),36.1216969,128.1299351
지품천중학교,도문요,경북 김천시 농소면 벽봉로 1639-17,36.0652038,128.1743731
지품천중학교,로제니아호텔,경북 김천시 혁신3로 16 로제니아,36.07783,128.09022
지품천중학교,앙젤리크 카카오,경북 김천시 부곡길 58,36.1256857,128.094475
진량중학교,경북지역경제교육센터,경북 영주시 대학로 77,36.8097325,128.6217935
진량중학교,지오펀,대구 수성구 들안로 274,35.8639697,128.6180897
진량중학교,지오펀,대구 수성구 들안로 274,35.8639697,128.6180897
진량중학교,한국청소년 진로개발원,대구 수성구 화랑로 190-3,35.8738161,128.6403593
진보중학교,뉴델리베이커리,경북 안동시 퇴계로 253,36.62417,128.76605
진보중학교,메이커연구소,대구 북구 침산로 93,35.9019419,128.5887299
진보중학교,서각 연구소,경북 포항시 북구 용흥로 66,36.0456704,129.3482603
진보중학교,수다여왕,경북 예천군 예천읍 중앙로 24,36.655143,128.4558053
진보중학교,청송교육지원청 주관,경북 청송군 청송읍 군청로 25,36.4354407,129.0562952
진평중학교,구미대학교,경상북도 구미시 야은로 37(부곡동),36.1261319,128.3572398
창포중학교,우리맘연구소,대구 수성구 동대구로 386,35.8594722,128.6261407
창포중학교,㈜미래인재개발원,대구 중구 달성로 10,35.8768012,128.5819249
창포중학교,㈜한국청소년체험세상,대구 남구 명덕로 104,35.854606000000004,128.58106212579864
창포중학교,포스코,경상북도 포항시 남구 포스코대로 317(상도동),36.0129726,129.369643
창포중학교,포항사청소년재단,경북 포항시 북구 삼호로 533,36.0427183,129.3675923
천생중학교,미래인재교육원,대구 남구 현충로 170,35.847321699999995,128.58504502768838
청도중학교,CGV영화관 대구미술관,대구 수성구 유니버시아드로 140,35.8297682,128.7055177
청도중학교,운문산생태탐 방안내센터,경북 청도군 운문면 운문사길 55,35.74829,128.96022
청송중학교,안동수학체험센터,경상북도 안동시 풍천면 지풍로 1434-11,36.557593,128.5149313
청통중학교,경주화백컨벤션센터,경북 경주시 보문로 507,35.8358871,129.2844338
청통중학교,남부미래교육관,경상북도 경산시 삼성현로 110(옥산동),35.8198801,128.7186019
청통중학교,대구학생문화센터,대구광역시 달서구 용산로 181(용산동),35.848186,128.530687
청통중학교,대구한의대학교,경상북도 경산시 한의대로 1(유곡동),35.825122,128.741329
청통중학교,디지스트,대구 달성군 현풍읍 테크노중앙대로 333,35.70414005000001,128.45792036207115
청통중학교,버섯마을농장,경북 포항시 북구 기계면 학야길 17-30,36.0507622,129.1952544
청통중학교,별빛꽃농원,경북 영천시 금호읍 교대리 400-27,35.92362,128.89645
청통중학교,보강곤충농원,경북 영천시 고경면 배골길 145-218,35.98381,129.05957
청통중학교,수학체험센터,경상북도 안동시 풍천면 지풍로 1434-11,36.557593,128.5149313
청통중학교,영천농업기술센터,경상북도 영천시 천문로 622-13(오미동),35.9410495,128.9295368
청통중학교,영천전통시장,경상북도 영천시 금호읍 금호로 101,35.9414261,128.9001449
청통중학교,카툰 카페,대구 동구 이노밸리로 144,35.8783197,128.7263048
청통중학교,한국와인,경북 영천시 금호읍 창산길 100-44,35.92362,128.89645
청통중학교,홀스드림파크,경북 영천시 청통면 청통로 413-23,35.99501,128.826
청하중학교,공방 그루,경북 포항시 남구 상공로 266-2,36.0161658,129.3595216
초전중학교,김천학생야영장,경상북도 김천시 대덕면 대덕로 553,35.91667,127.96581
초전중학교,백세각,경상북도 성주군 초전면 고산1길 21-3,35.99147,128.25212
축산중학교,장계향 두들마을,경북 영양군 석보면 원리리 322,36.55488,129.1683
축산중학교,장사해수욕장 ,경북 영덕군 남정면 장사리,36.28492,129.36317
축산중학교,해양청소년센터,경북 영덕군 영덕읍 영덕대게로 911-44,36.4685589,129.4350989
축산중학교,해양청소년센터,경북 영덕군 영덕읍 영덕대게로 911-44,36.4685589,129.4350989
춘양중학교,백두대간 수목원,경상북도 봉화군 춘양면 문수로 2160-3,36.9788,128.73334
춘양중학교,봉화목재문화체험장,경북 봉화군 봉성면 구절로 151,36.9095856,128.7985616
춘양중학교,"분천역, 양원역",경북 봉화군 소천면 분천길 49,36.91711,129.03944
춘양중학교,영주볼링장,경북 영주시 지천로 77,36.8161518,128.619951
춘양중학교,해오름영농조합법인(물야),경북 봉화군 물야면 문수로 574-43,36.9788,128.73334
춘양중학교서벽분교장,봉화목재문화체험장,경북 봉화군 봉성면 구절로 151,36.9095856,128.7985616
춘양중학교서벽분교장,영농조합법인,경북 포항시 북구 흥해읍 용전길 17,36.1211591,129.3319336
춘양중학교서벽분교장,영주 소백도예,경북 영주시 중앙로 91-11,36.8263374,128.6258582
춘양중학교서벽분교장,온교육 영주지사,경북 영주시 남간로71번길 6,36.8198211,128.6355213
춘양중학교서벽분교장,해오름영농조합법인(물야),경북 봉화군 물야면 문수로 574-43,36.9788,128.73334
포항여자중학교 ,포항여자중학교 ,경상북도 포항시 북구 장미길 49(우현동),36.0506277,129.3640154
포항여자중학교 ,포항여자중학교 ,경상북도 포항시 북구 장미길 49(우현동),36.0506277,129.3640154
포항여자중학교 ,포항여자중학교 ,경상북도 포항시 북구 장미길 49(우현동),36.0506277,129.3640154
포항중학교,경북교육청,경상북도 포항시 북구 우미길 93(용흥동),36.0432764,129.3580264
포항중학교,경북전문대학교,경북 영주시 대학로 77,36.8097325,128.6217935
포항중학교,글로벌인재개발연구원,경북 경산시 강변서로 111 ,35.820083,128.7311572
포항중학교,안동대학교,경상북도 안동시 경동로 1375(송천동),36.5378416,128.8331283
포항중학교,포항북CGV,경북 포항시 북구 서동로 93,36.0407438,129.36817245690702
포항중학교,포항시청소년 수련관,경상북도 포항시 북구 삼호로 533(환호동),36.0427183,129.3675923
풍기중학교,김천녹색미래과학관,경상북도 김천시 혁신6로 31(율곡동),36.1245979,128.18457853174817
풍기중학교,김천녹색미래과학관,경상북도 김천시 혁신6로 31(율곡동),36.1245979,128.18457853174817
풍기중학교,안동 유교랜드&놀팍,경상북도 안동시 관광단지로 346-30(성곡동),36.5540854,128.7544163
풍기중학교,안동 유교랜드&놀팍,경상북도 안동시 관광단지로 346-30(성곡동),36.5540854,128.7544163
풍기중학교,영주 미소머금고,경북 영주시 봉현면 소백로 1727,36.8447838,128.5256316
풍기중학교,영주 미소머금고,경북 영주시 봉현면 소백로 1727,36.8447838,128.5256316
풍기중학교,영주 선비도서관,경북 영주시 영주로60번길 38,36.8190199,128.6071886
풍기중학교,영주 선비도서관,경북 영주시 영주로60번길 38,36.8190199,128.6071886
풍기중학교,영주국유림관리소,경북 영주시 반지미로 178,36.805685,128.624054
풍기중학교,영주국유림관리소,경북 영주시 반지미로 178,36.805685,128.624054
풍기중학교,영주선비촌한과,경북 영주시 창진로195번길 316,36.8411052,128.5905771
풍기중학교,영주선비촌한과,경북 영주시 창진로195번길 316,36.8411052,128.5905771
풍기중학교,영주시청소년문화의집,경북 영주시 광복로 63,36.8277038,128.6256097
풍기중학교,영주시청소년문화의집,경북 영주시 광복로 63,36.8277038,128.6256097
풍기중학교,의성안전체험관,경북 의성군 다인면 자미로 492,36.4494762,128.3565875
풍기중학교,의성안전체험관,경북 의성군 다인면 자미로 492,36.4494762,128.3565875
풍산중학교,국립청소년해양센터,경북 영덕군 영덕읍 영덕대게로 911-44,36.4685589,129.4350989
풍산중학교,하회세계탈박물관,경상북도 안동시 풍천면 전서로 206,36.5425816,128.5252527
풍앙중학교,북부메이커센터,경북 구미시 박정희로 155,36.1113716,128.356324
풍앙중학교,순수애천연공방,경북 예천군 예천읍 대심1길 42-5,36.6520861,128.4402674
풍앙중학교,신풍미술관,경북 예천군 지보면 신풍1리길 50,36.55224,128.39561
풍앙중학교,쌀아지매마을,경북 예천군 개포면 송담길 142-31,36.6143,128.36445
풍앙중학교,예천농산물 가공지원센터,경상북도 예천군 예천읍 지내길 10,36.6547,128.4521
풍앙중학교,"예천박물관, 예천천문우주센터, 선몽대, 석송령",경북 예천군 감천면 복골길 150,36.73414,128.51646
풍앙중학교,예천진호 국제양국장,경북 예천군 예천읍 양궁장길 38,36.6547,128.4521
풍앙중학교,㈜에이블,경북 칠곡군 석적읍 석적로 955-19,36.0751451,128.3934432
풍앙중학교,㈜온교육,대구 수성구 들안로28길 24-40,35.8425805,128.6198342
풍앙중학교,팜앤팜 커피스토리,경북 예천군 예천읍 군청앞길 1,36.6547,128.4521
풍앙중학교,한코두코손뜨개공방,경북 예천군 예천읍 대심1길 42-5,36.6520861,128.4402674
하양여자중학교,우리맘연구소,대구 수성구 동대구로 386,35.8594722,128.6261407
하양여자중학교,우리맘연구소,대구 수성구 동대구로 386,35.8594722,128.6261407
하양여자중학교,한국청소년 체험세상,경북 청도군 이서면 대곡길 324-50,35.7091262,128.6971309
하양여자중학교,한국청소년 체험세상,경북 청도군 이서면 대곡길 324-50,35.7091262,128.6971309
한일여자중학교,김천교육지원청,경상북도 김천시 충효길 19(성내동),36.1211655,128.1183869
한일여자중학교,남부미래교육관 남부메이커교육센터,경북 경산시 삼성현로 110,35.8198801,128.7186019
한일여자중학교,대한법률구조공단,서울특별시 서초구 법원로4길 17(서초동),37.4943296,127.0112746
한일여자중학교,민주평화통일자문위원회 김천협의회,경북 김천시 김천로 199,36.1181018,128.1238108
한일여자중학교,이종인골프,경북 김천시 조각공원길 412,36.1304176,128.1145128
한일여자중학교,정인에듀,경북 칠곡군 기산면 칠곡대로 1315,35.9927198,128.3872542
한일여자중학교,키핑클래스,대구 중구 중앙대로81길 14,35.8697718,128.5937342
해마루중학교,이월드,대구 달서구 두류공원로 200,35.8522393,128.5623122
해평중학교,경북체육고,경북 경산시 경안로 43,35.81568,128.7389
해평중학교,그림책산책,경북 구미시 원남로10길 19,36.1266139,128.3325234
해평중학교,대구보건대,대구광역시 북구 영송로 15(태전동),35.9295402,128.5445106
해평중학교,은척양조장,경북 상주시 은척면 봉중2길 16-9,36.5302303,128.0703614
해평중학교,흰터공방,경북 구미시 해평면 오상2길 6,36.1998392,128.3913747
현동중학교,꿈여울,대전광역시 동구 석천로 95-22(낭월동),36.2760893,127.4678351
현동중학교,꿈여울,대전광역시 동구 석천로 95-22(낭월동),36.2760893,127.4678351
현동중학교,꿈여울,대전광역시 동구 석천로 95-22(낭월동),36.2760893,127.4678351
현동중학교,사회적기업point,경북 영주시 구성로150번길 19,36.8070556,128.6293459
현동중학교,사회적기업point,경북 영주시 구성로150번길 19,36.8070556,128.6293459
현동중학교,사회적기업point,경북 영주시 구성로150번길 19,36.8070556,128.6293459
현동중학교,사회적기업point,경북 영주시 구성로150번길 19,36.8070556,128.6293459
현동중학교,사회적기업point,경북 영주시 구성로150번길 19,36.8070556,128.6293459
현동중학교,사회적기업point,경북 영주시 구성로150번길 19,36.8070556,128.6293459
현동중학교,사회적기업point,경북 영주시 구성로150번길 19,36.8070556,128.6293459
현동중학교,풀잎문화센터,경북 구미시 송정대로 46,36.1174458,128.3424815
현동중학교,풀잎문화센터,경북 구미시 송정대로 46,36.1174458,128.3424815
현서중학교,글로벌인재개발연구원,경북 경산시 강변서로 111 ,35.820083,128.7311572
현서중학교,글로벌인재개발연구원,경북 경산시 강변서로 111 ,35.820083,128.7311572
현서중학교,의성목재 문화체험장,경북 의성군 춘산면 금성현서로 1505,36.24219,128.85677
현서중학교,"조문국 박물관, 볼링장",경북 의성군 금성면 초전1길 83,36.2755002,128.6621957
현일중학교,경산수학체험센터,경북 경산시 삼성현로 110,35.8198801,128.7186019
현일중학교,상주청소년수련원,경북 상주시 북상주로 24-42,36.471686,128.1684718
화랑중학교,사단법인도산서원선비문화수련원,경북 안동시 도산면 토계리 726,36.74281,128.85162
환호여자중학교,한국청소년 체험세상,경북 청도군 이서면 대곡길 324-50,35.7091262,128.6971309
효령중학교,경북인공지능교육센터,경북 의성군 봉양면 봉호로 14,36.3236472,128.5858425
효령중학교,경북지역경제교육센터,경북 의성군 봉양면 봉호로 14,36.3236472,128.5858425
효령중학교,경산메이커교육센터,경북 경산시 삼성현로 110,35.8198801,128.7186019
효령중학교,경주라한셀렉트호텔 한국대중음악박물관,경북 경주시 보문로 338,35.85043735,129.27674984136357
효령중학교,고지바위다목적센터,경북 군위군 효령면 장군당1길 24-6,36.14663,128.59544
효령중학교,군위문화예술체험장,경북 군위군 군위읍 경북대로 3292,36.2444338,128.5633531
효령중학교,앤디스코나커피공장,경상북도 군위군 군위읍 대북길 132,36.2688365,128.5652316
후포중학교,경상북도 환경연수원,경상북도 구미시 금오산로 336-97(남통동),36.1258311,128.3363634
후포중학교,국립백두대간수목원,경상북도 봉화군 춘양면 문수로 2160-3,36.9788,128.73334
후포중학교,국립청소년해양센터,경북 영덕군 영덕읍 영덕대게로 911-44,36.4685589,129.4350989
후포중학교,국립해양과학관,경상북도 울진군 죽변면 해양과학길 8,37.0749605,129.4052629
후포중학교,미래인재교육원,대구 남구 현충로 170,35.847321699999995,128.58504502768838
후포중학교,울진발명교육센터,경북 울진군 근남면 노음6길 22,36.9499466,129.3791071
